{"New York":{"total_entries":1668,"per_page":25,"current_page":1,"restaurants":[{"id":4162,"name":"Orsay","address":"1057-59 Lexington Avenue","city":"New York","state":"NY","area":"New York / Tri-State Area","postal_code":"10021","country":"US","phone":"2125176400x0","lat":40.772397,"lng":-73.960762,"price":3,"reserve_url":"http://www.opentable.com/single.aspx?rid=4162","mobile_reserve_url":"http://mobile.opentable.com/opentable/?restId=4162","image_url":"https://www.opentable.com/img/restimages/4162.jpg"},{"id":24202,"name":"Hill Country - Flatiron","address":"30 West 26th Street","city":"New York","state":"NY","area":"New York / Tri-State Area","postal_code":"10010","country":"US","phone":"2122554544x10","lat":40.744163,"lng":-73.990471,"price":2,"reserve_url":"http://www.opentable.com/single.aspx?rid=24202","mobile_reserve_url":"http://mobile.opentable.com/opentable/?restId=24202","image_url":"https://www.opentable.com/img/restimages/24202.jpg"},{"id":97870,"name":"Bacchanal","address":"146 Bowery","city":"New York","state":"NY","area":"New York / Tri-State Area","postal_code":"10013","country":"US","phone":"646-355-1840x","lat":40.719441,"lng":-73.994966,"price":2,"reserve_url":"http://www.opentable.com/single.aspx?rid=97870","mobile_reserve_url":"http://mobile.opentable.com/opentable/?restId=97870","image_url":"https://www.opentable.com/img/restimages/97870.jpg"},{"id":139675,"name":"SKÁL","address":"37 Canal St.","city":"New York","state":"NY","area":"New York / Tri-State Area","postal_code":"10002","country":"US","phone":"2127777518","lat":40.71476,"lng":-73.990943,"price":3,"reserve_url":"http://www.opentable.com/single.aspx?rid=139675","mobile_reserve_url":"http://mobile.opentable.com/opentable/?restId=139675","image_url":"https://www.opentable.com/img/restimages/139675.jpg"},{"id":5656,"name":"MINT","address":"150 E. 50th Street","city":"New York","state":"NY","area":"New York / Tri-State Area","postal_code":"10022","country":"US","phone":"2126448888","lat":40.756,"lng":-73.972,"price":3,"reserve_url":"http://www.opentable.com/single.aspx?rid=5656","mobile_reserve_url":"http://mobile.opentable.com/opentable/?restId=5656","image_url":"https://www.opentable.com/img/restimages/5656.jpg"},{"id":118534,"name":"Ariana","address":"138-140 W Houston St","city":"New York","state":"NY","area":"New York / Tri-State Area","postal_code":"10012","country":"US","phone":"6466784334x","lat":40.727871,"lng":-74.001626,"price":3,"reserve_url":"http://www.opentable.com/single.aspx?rid=118534","mobile_reserve_url":"http://mobile.opentable.com/opentable/?restId=118534","image_url":"https://www.opentable.com/img/restimages/118534.jpg"},{"id":108091,"name":"Hudson Place Restaurant & Bar","address":"538 3rd Ave","city":"New York","state":"NY","area":"New York / Tri-State Area","postal_code":"10016","country":"US","phone":"2126866660x","lat":40.747048,"lng":-73.97755,"price":2,"reserve_url":"http://www.opentable.com/single.aspx?rid=108091","mobile_reserve_url":"http://mobile.opentable.com/opentable/?restId=108091","image_url":"https://www.opentable.com/img/restimages/108091.jpg"},{"id":152554,"name":"Perla","address":"24 Minetta Lane","city":"New York","state":"NY","area":"New York / Tri-State Area","postal_code":"10012","country":"US","phone":"2129331824","lat":40.730469,"lng":-74.001262,"price":3,"reserve_url":"http://www.opentable.com/single.aspx?rid=152554","mobile_reserve_url":"http://mobile.opentable.com/opentable/?restId=152554","image_url":"https://www.opentable.com/img/restimages/152554.jpg"},{"id":112417,"name":"Lazzara's Pizza Cafe","address":"221 West 38th Street","city":"New York","state":"NY","area":"New York / Tri-State Area","postal_code":"10018","country":"US","phone":"2129447792","lat":40.753932,"lng":-73.989547,"price":2,"reserve_url":"http://www.opentable.com/single.aspx?rid=112417","mobile_reserve_url":"http://mobile.opentable.com/opentable/?restId=112417","image_url":"https://www.opentable.com/img/restimages/112417.jpg"},{"id":108433,"name":"CAMAJE Bistro","address":"85 MacDougal St","city":"New York","state":"NY","area":"New York / Tri-State Area","postal_code":"10012","country":"US","phone":"2126738184","lat":40.728884,"lng":-74.001561,"price":2,"reserve_url":"http://www.opentable.com/single.aspx?rid=108433","mobile_reserve_url":"http://mobile.opentable.com/opentable/?restId=108433","image_url":"https://www.opentable.com/img/restimages/108433.jpg"},{"id":104296,"name":"Barn Joo","address":"893 Broadway","city":"New York","state":"NY","area":"New York / Tri-State Area","postal_code":"10003","country":"US","phone":"6463989663x","lat":40.738912,"lng":-73.990223,"price":3,"reserve_url":"http://www.opentable.com/single.aspx?rid=104296","mobile_reserve_url":"http://mobile.opentable.com/opentable/?restId=104296","image_url":"https://www.opentable.com/img/restimages/104296.jpg"},{"id":63580,"name":"Mulberry Project","address":"149 Mulberry St.","city":"New York","state":"NY","area":"New York / Tri-State Area","postal_code":"10013","country":"US","phone":"6464484536","lat":40.719077,"lng":-73.997689,"price":3,"reserve_url":"http://www.opentable.com/single.aspx?rid=63580","mobile_reserve_url":"http://mobile.opentable.com/opentable/?restId=63580","image_url":"https://www.opentable.com/img/restimages/63580.jpg"},{"id":111841,"name":"The Writing Room","address":"1703 2nd Avenue","city":"New York","state":"NY","area":"New York / Tri-State Area","postal_code":"10128","country":"US","phone":"2123350075x","lat":40.779544,"lng":-73.950638,"price":2,"reserve_url":"http://www.opentable.com/single.aspx?rid=111841","mobile_reserve_url":"http://mobile.opentable.com/opentable/?restId=111841","image_url":"https://www.opentable.com/img/restimages/111841.jpg"},{"id":52969,"name":"Ai Fiori","address":"400 5th Avenue","city":"New York","state":"NY","area":"New York / Tri-State Area","postal_code":"10018","country":"US","phone":"2126138660x","lat":40.750228,"lng":-73.983714,"price":3,"reserve_url":"http://www.opentable.com/single.aspx?rid=52969","mobile_reserve_url":"http://mobile.opentable.com/opentable/?restId=52969","image_url":"https://www.opentable.com/img/restimages/52969.jpg"},{"id":38164,"name":"Spina","address":"175 Avenue B","city":"New York","state":"NY","area":"New York / Tri-State Area","postal_code":"10009","country":"US","phone":"2122532250","lat":40.727479,"lng":-73.979187,"price":3,"reserve_url":"http://www.opentable.com/single.aspx?rid=38164","mobile_reserve_url":"http://mobile.opentable.com/opentable/?restId=38164","image_url":"https://www.opentable.com/img/restimages/38164.jpg"},{"id":95353,"name":"Maysville","address":"17 W. 26th St","city":"New York","state":"NY","area":"New York / Tri-State Area","postal_code":"10010","country":"US","phone":"6464908240x","lat":40.744061,"lng":-73.989671,"price":3,"reserve_url":"http://www.opentable.com/single.aspx?rid=95353","mobile_reserve_url":"http://mobile.opentable.com/opentable/?restId=95353","image_url":"https://www.opentable.com/img/restimages/95353.jpg"},{"id":101131,"name":"Grape & Vine","address":"52 W 13th Street","city":"New York","state":"NY","area":"New York / Tri-State Area","postal_code":"10011","country":"US","phone":"2123004525x","lat":40.736317,"lng":-73.996523,"price":3,"reserve_url":"http://www.opentable.com/single.aspx?rid=101131","mobile_reserve_url":"http://mobile.opentable.com/opentable/?restId=101131","image_url":"https://www.opentable.com/img/restimages/101131.jpg"},{"id":99322,"name":"Barca","address":"244 Mulberry St.","city":"New York","state":"NY","area":"New York / Tri-State Area","postal_code":"10012","country":"US","phone":"2127750112x","lat":40.722925,"lng":-73.995806,"price":3,"reserve_url":"http://www.opentable.com/single.aspx?rid=99322","mobile_reserve_url":"http://mobile.opentable.com/opentable/?restId=99322","image_url":"https://www.opentable.com/img/restimages/99322.jpg"},{"id":135925,"name":"Tacombi Fonda Nolita","address":"267 Elizabeth St","city":"New York","state":"NY","area":"New York / Tri-State Area","postal_code":"10012","country":"US","phone":"9177270179x","lat":40.724046,"lng":-73.993875,"price":2,"reserve_url":"http://www.opentable.com/single.aspx?rid=135925","mobile_reserve_url":"http://mobile.opentable.com/opentable/?restId=135925","image_url":"https://www.opentable.com/img/restimages/135925.jpg"},{"id":63154,"name":"Kori Tribeca","address":"253 Church Street","city":"New York","state":"NY","area":"New York / Tri-State Area","postal_code":"10013","country":"US","phone":"212-334-0908x","lat":40.71781,"lng":-74.005445,"price":2,"reserve_url":"http://www.opentable.com/single.aspx?rid=63154","mobile_reserve_url":"http://mobile.opentable.com/opentable/?restId=63154","image_url":"https://www.opentable.com/img/restimages/63154.jpg"},{"id":69439,"name":"Kafana","address":"116 Avenue C","city":"New York","state":"NY","area":"New York / Tri-State Area","postal_code":"10009","country":"US","phone":"2123538000","lat":40.724426,"lng":-73.978581,"price":2,"reserve_url":"http://www.opentable.com/single.aspx?rid=69439","mobile_reserve_url":"http://mobile.opentable.com/opentable/?restId=69439","image_url":"https://www.opentable.com/img/restimages/69439.jpg"},{"id":64942,"name":"Nick & Toni's Cafe Manhattan","address":"100 W. 67th St.","city":"New York","state":"NY","area":"New York / Tri-State Area","postal_code":"10023","country":"US","phone":"2124964000x","lat":40.774287,"lng":-73.981473,"price":2,"reserve_url":"http://www.opentable.com/single.aspx?rid=64942","mobile_reserve_url":"http://mobile.opentable.com/opentable/?restId=64942","image_url":"https://www.opentable.com/img/restimages/64942.jpg"},{"id":68272,"name":"Dark Horse","address":"17 Murray Street","city":"New York","state":"NY","area":"New York / Tri-State Area","postal_code":"10007","country":"US","phone":"2126083900","lat":40.713718,"lng":-74.008036,"price":2,"reserve_url":"http://www.opentable.com/single.aspx?rid=68272","mobile_reserve_url":"http://mobile.opentable.com/opentable/?restId=68272","image_url":"https://www.opentable.com/img/restimages/68272.jpg"},{"id":5274,"name":"Dinosaur Bar-B-Que - Harlem","address":"700 west 125th st","city":"New York","state":"NY","area":"New York / Tri-State Area","postal_code":"10027","country":"US","phone":"2126941777x","lat":40.818118,"lng":-73.960517,"price":2,"reserve_url":"http://www.opentable.com/single.aspx?rid=5274","mobile_reserve_url":"http://mobile.opentable.com/opentable/?restId=5274","image_url":"https://www.opentable.com/img/restimages/5274.jpg"},{"id":146086,"name":"Chapter One","address":"33 Greenwich Avenue","city":"New York","state":"NY","area":"New York / Tri-State Area","postal_code":"10014","country":"US","phone":"2128429146","lat":40.734985,"lng":-74.000451,"price":2,"reserve_url":"http://www.opentable.com/single.aspx?rid=146086","mobile_reserve_url":"http://mobile.opentable.com/opentable/?restId=146086","image_url":"https://www.opentable.com/img/restimages/146086.jpg"}]},"San Francisco":{"total_entries":535,"per_page":25,"current_page":1,"restaurants":[{"id":151612,"name":"Perry's Union Street","address":"1944 Union Street","city":"San Francisco","state":"CA","area":"San Francisco Bay Area","postal_code":"94123","country":"US","phone":"4159229022","lat":37.797904,"lng":-122.431332,"price":2,"reserve_url":"http://www.opentable.com/single.aspx?rid=151612","mobile_reserve_url":"http://mobile.opentable.com/opentable/?restId=151612","image_url":"https://www.opentable.com/img/restimages/151612.jpg"},{"id":141049,"name":"Trou Normand","address":"140 New Montgomery Street","city":"San Francisco","state":"CA","area":"San Francisco Bay Area","postal_code":"94103","country":"US","phone":"4159750876","lat":37.786664,"lng":-122.399773,"price":2,"reserve_url":"http://www.opentable.com/single.aspx?rid=141049","mobile_reserve_url":"http://mobile.opentable.com/opentable/?restId=141049","image_url":"https://www.opentable.com/img/restimages/141049.jpg"},{"id":22792,"name":"Fishermen's Grotto #9","address":"2847 Taylor Street","city":"San Francisco","state":"CA","area":"San Francisco Bay Area","postal_code":"94133","country":"US","phone":"4156737025","lat":37.808407,"lng":-122.415845,"price":2,"reserve_url":"http://www.opentable.com/single.aspx?rid=22792","mobile_reserve_url":"http://mobile.opentable.com/opentable/?restId=22792","image_url":"https://www.opentable.com/img/restimages/22792.jpg"},{"id":50962,"name":"Sons & Daughters","address":"708 Bush Street","city":"San Francisco","state":"CA","area":"San Francisco Bay Area","postal_code":"94108","country":"US","phone":"4153918311","lat":37.790138,"lng":-122.40908,"price":4,"reserve_url":"http://www.opentable.com/single.aspx?rid=50962","mobile_reserve_url":"http://mobile.opentable.com/opentable/?restId=50962","image_url":"https://www.opentable.com/img/restimages/50962.jpg"},{"id":4121,"name":"Ristobar","address":"2300 Chestnut St","city":"San Francisco","state":"CA","area":"San Francisco Bay Area","postal_code":"94123","country":"US","phone":"4159236464x","lat":37.80035,"lng":-122.441486,"price":2,"reserve_url":"http://www.opentable.com/single.aspx?rid=4121","mobile_reserve_url":"http://mobile.opentable.com/opentable/?restId=4121","image_url":"https://www.opentable.com/img/restimages/4121.jpg"},{"id":6001,"name":"Mamacita","address":"2317 Chestnut St","city":"San Francisco","state":"CA","area":"San Francisco Bay Area","postal_code":"94123","country":"US","phone":"4153468494","lat":37.799953,"lng":-122.44147,"price":2,"reserve_url":"http://www.opentable.com/single.aspx?rid=6001","mobile_reserve_url":"http://mobile.opentable.com/opentable/?restId=6001","image_url":"https://www.opentable.com/img/restimages/6001.jpg"},{"id":149539,"name":"KUSAKABE","address":"584 Washington Street","city":"San Francisco","state":"CA","area":"San Francisco Bay Area","postal_code":"94111","country":"US","phone":"4157570155","lat":37.795597,"lng":-122.402963,"price":4,"reserve_url":"http://www.opentable.com/single.aspx?rid=149539","mobile_reserve_url":"http://mobile.opentable.com/opentable/?restId=149539","image_url":"https://www.opentable.com/img/restimages/149539.jpg"},{"id":7742,"name":"The Oak Room - The Westin St. Francis","address":"335 Powell St","city":"San Francisco","state":"CA","area":"San Francisco Bay Area","postal_code":"94102","country":"US","phone":"4157740264","lat":37.787978,"lng":-122.408365,"price":2,"reserve_url":"http://www.opentable.com/single.aspx?rid=7742","mobile_reserve_url":"http://mobile.opentable.com/opentable/?restId=7742","image_url":"https://www.opentable.com/img/restimages/7742.jpg"},{"id":22126,"name":"BIN 38","address":"3232 Scott Street","city":"San Francisco","state":"CA","area":"San Francisco Bay Area","postal_code":"94123","country":"US","phone":"4155673838x","lat":37.799744,"lng":-122.441095,"price":2,"reserve_url":"http://www.opentable.com/single.aspx?rid=22126","mobile_reserve_url":"http://mobile.opentable.com/opentable/?restId=22126","image_url":"https://www.opentable.com/img/restimages/22126.jpg"},{"id":45916,"name":"Benu","address":"22 Hawthorne Street","city":"San Francisco","state":"CA","area":"San Francisco Bay Area","postal_code":"94105","country":"US","phone":"4156854860x","lat":37.785402,"lng":-122.399068,"price":4,"reserve_url":"http://www.opentable.com/single.aspx?rid=45916","mobile_reserve_url":"http://mobile.opentable.com/opentable/?restId=45916","image_url":"https://www.opentable.com/img/restimages/45916.jpg"},{"id":7405,"name":"Lark Creek Steak","address":"845 Market Street - 4th Floor","city":"San Francisco","state":"CA","area":"San Francisco Bay Area","postal_code":"94103","country":"US","phone":"4155934100x","lat":37.784909,"lng":-122.406922,"price":3,"reserve_url":"http://www.opentable.com/single.aspx?rid=7405","mobile_reserve_url":"http://mobile.opentable.com/opentable/?restId=7405","image_url":"https://www.opentable.com/img/restimages/7405.jpg"},{"id":7644,"name":"Le Zinc","address":"4063 24th Street","city":"San Francisco","state":"CA","area":"San Francisco Bay Area","postal_code":"94114","country":"US","phone":"4156479400x","lat":37.7511,"lng":-122.433235,"price":2,"reserve_url":"http://www.opentable.com/single.aspx?rid=7644","mobile_reserve_url":"http://mobile.opentable.com/opentable/?restId=7644","image_url":"https://www.opentable.com/img/restimages/7644.jpg"},{"id":114487,"name":"Maruya","address":"2931 16th Street","city":"San Francisco","state":"CA","area":"San Francisco Bay Area","postal_code":"94103","country":"US","phone":"4155030702x","lat":37.764932,"lng":-122.418318,"price":4,"reserve_url":"http://www.opentable.com/single.aspx?rid=114487","mobile_reserve_url":"http://mobile.opentable.com/opentable/?restId=114487","image_url":"https://www.opentable.com/img/restimages/114487.jpg"},{"id":37849,"name":"Jai Yun","address":"680 Clay Street","city":"San Francisco","state":"CA","area":"San Francisco Bay Area","postal_code":"94111","country":"US","phone":"4159817438","lat":37.794505,"lng":-122.404505,"price":4,"reserve_url":"http://www.opentable.com/single.aspx?rid=37849","mobile_reserve_url":"http://mobile.opentable.com/opentable/?restId=37849","image_url":"https://www.opentable.com/img/restimages/37849.jpg"},{"id":144724,"name":"TBD Restaurant","address":"1077 Mission Street","city":"San Francisco","state":"CA","area":"San Francisco Bay Area","postal_code":"94103","country":"US","phone":"4154311826x","lat":37.779569,"lng":-122.410182,"price":3,"reserve_url":"http://www.opentable.com/single.aspx?rid=144724","mobile_reserve_url":"http://mobile.opentable.com/opentable/?restId=144724","image_url":"https://www.opentable.com/img/restimages/144724.jpg"},{"id":282,"name":"Ideale","address":"1309 Grant Avenue","city":"San Francisco","state":"CA","area":"San Francisco Bay Area","postal_code":"94109","country":"US","phone":"4153914129x","lat":37.798969,"lng":-122.407312,"price":2,"reserve_url":"http://www.opentable.com/single.aspx?rid=282","mobile_reserve_url":"http://mobile.opentable.com/opentable/?restId=282","image_url":"https://www.opentable.com/img/restimages/282.jpg"},{"id":23521,"name":"Blue Plate","address":"3218 Mission Street","city":"San Francisco","state":"CA","area":"San Francisco Bay Area","postal_code":"94110","country":"US","phone":"4152826777x","lat":37.745275,"lng":-122.420435,"price":3,"reserve_url":"http://www.opentable.com/single.aspx?rid=23521","mobile_reserve_url":"http://mobile.opentable.com/opentable/?restId=23521","image_url":"https://www.opentable.com/img/restimages/23521.jpg"},{"id":117388,"name":"TamashiSoul Sushi Bar","address":"1849 Union Street","city":"San Francisco","state":"CA","area":"San Francisco Bay Area","postal_code":"94123","country":"US","phone":"415-346-1849x","lat":37.79781,"lng":-122.429741,"price":3,"reserve_url":"http://www.opentable.com/single.aspx?rid=117388","mobile_reserve_url":"http://mobile.opentable.com/opentable/?restId=117388","image_url":"https://www.opentable.com/img/restimages/117388.jpg"},{"id":111319,"name":"Craw Station","address":"1336 9th Avenue","city":"San Francisco","state":"CA","area":"San Francisco Bay Area","postal_code":"94122","country":"US","phone":"4156829980x","lat":37.76335,"lng":-122.466157,"price":2,"reserve_url":"http://www.opentable.com/single.aspx?rid=111319","mobile_reserve_url":"http://mobile.opentable.com/opentable/?restId=111319","image_url":"https://www.opentable.com/img/restimages/111319.jpg"},{"id":105217,"name":"South at SF Jazz","address":"201 Franklin Street","city":"San Francisco","state":"CA","area":"San Francisco Bay Area","postal_code":"94102","country":"US","phone":"4155393905x","lat":37.776166,"lng":-122.421185,"price":2,"reserve_url":"http://www.opentable.com/single.aspx?rid=105217","mobile_reserve_url":"http://mobile.opentable.com/opentable/?restId=105217","image_url":"https://www.opentable.com/img/restimages/105217.jpg"},{"id":114490,"name":"Stones Throw","address":"1896 Hyde Street","city":"San Francisco","state":"CA","area":"San Francisco Bay Area","postal_code":"94109","country":"US","phone":"4157962901x","lat":37.798117,"lng":-122.41873,"price":3,"reserve_url":"http://www.opentable.com/single.aspx?rid=114490","mobile_reserve_url":"http://mobile.opentable.com/opentable/?restId=114490","image_url":"https://www.opentable.com/img/restimages/114490.jpg"},{"id":117262,"name":"Ichi Sushi & Ni Bar","address":"3282 Mission Street","city":"San Francisco","state":"CA","area":"San Francisco Bay Area","postal_code":"94110","country":"US","phone":"4155254750","lat":37.742681,"lng":-122.421542,"price":3,"reserve_url":"http://www.opentable.com/single.aspx?rid=117262","mobile_reserve_url":"http://mobile.opentable.com/opentable/?restId=117262","image_url":"https://www.opentable.com/img/restimages/117262.jpg"},{"id":2542,"name":"Absinthe Brasserie and Bar","address":"398 Hayes Street","city":"San Francisco","state":"CA","area":"San Francisco Bay Area","postal_code":"94102","country":"US","phone":"4155511590x","lat":37.776917,"lng":-122.42298,"price":2,"reserve_url":"http://www.opentable.com/single.aspx?rid=2542","mobile_reserve_url":"http://mobile.opentable.com/opentable/?restId=2542","image_url":"https://www.opentable.com/img/restimages/2542.jpg"},{"id":15403,"name":"Le Central","address":"453 Bush St.","city":"San Francisco","state":"CA","area":"San Francisco Bay Area","postal_code":"94108","country":"US","phone":"4153912233","lat":37.790452,"lng":-122.405025,"price":2,"reserve_url":"http://www.opentable.com/single.aspx?rid=15403","mobile_reserve_url":"http://mobile.opentable.com/opentable/?restId=15403","image_url":"https://www.opentable.com/img/restimages/15403.jpg"},{"id":13591,"name":"Spruce","address":"3640 Sacramento St","city":"San Francisco","state":"CA","area":"San Francisco Bay Area","postal_code":"94118","country":"US","phone":"4159315100x","lat":37.787725,"lng":-122.452758,"price":3,"reserve_url":"http://www.opentable.com/single.aspx?rid=13591","mobile_reserve_url":"http://mobile.opentable.com/opentable/?restId=13591","image_url":"https://www.opentable.com/img/restimages/13591.jpg"}]},"Chicago":{"total_entries":602,"per_page":25,"current_page":1,"restaurants":[{"id":7267,"name":"10pin Bowling Lounge","address":"330 N State Street","city":"Chicago","state":"IL","area":"Chicago / Illinois","postal_code":"60610","country":"US","phone":"3126440300x","lat":41.888634,"lng":-87.628091,"price":4,"reserve_url":"http://www.opentable.com/single.aspx?rid=7267","mobile_reserve_url":"http://mobile.opentable.com/opentable/?restId=7267","image_url":"https://www.opentable.com/img/restimages/7267.jpg"},{"id":147604,"name":"Chicago Chop House","address":"60 W Ontario St","city":"Chicago","state":"IL","area":"Chicago / Illinois","postal_code":"60654","country":"US","phone":"3127877100","lat":41.893491,"lng":-87.63045,"price":4,"reserve_url":"http://www.opentable.com/single.aspx?rid=147604","mobile_reserve_url":"http://mobile.opentable.com/opentable/?restId=147604","image_url":"https://www.opentable.com/img/restimages/147604.jpg"},{"id":149062,"name":"Osteria Langhe","address":"2824 West Armitage Avenue","city":"Chicago","state":"IL","area":"Chicago / Illinois","postal_code":"60647","country":"US","phone":"7736611582x","lat":41.917688,"lng":-87.698281,"price":2,"reserve_url":"http://www.opentable.com/single.aspx?rid=149062","mobile_reserve_url":"http://mobile.opentable.com/opentable/?restId=149062","image_url":"https://www.opentable.com/img/restimages/149062.jpg"},{"id":2053,"name":"The Capital Grille - Chicago - Downtown","address":"633 North Saint Clair","city":"Chicago","state":"IL","area":"Chicago / Illinois","postal_code":"60611","country":"US","phone":"3123379400x","lat":41.893591,"lng":-87.622615,"price":4,"reserve_url":"http://www.opentable.com/single.aspx?rid=2053","mobile_reserve_url":"http://mobile.opentable.com/opentable/?restId=2053","image_url":"https://www.opentable.com/img/restimages/2053.jpg"},{"id":3401,"name":"Signature Room at the 95th","address":"875 N. Michigan Avenue","city":"Chicago","state":"IL","area":"Chicago / Illinois","postal_code":"60611","country":"US","phone":"3127879596x","lat":41.8987,"lng":-87.6241,"price":4,"reserve_url":"http://www.opentable.com/single.aspx?rid=3401","mobile_reserve_url":"http://mobile.opentable.com/opentable/?restId=3401","image_url":"https://www.opentable.com/img/restimages/3401.jpg"},{"id":1162,"name":"Café Ba-Ba-Reeba","address":"2024 North Halsted St.","city":"Chicago","state":"IL","area":"Chicago / Illinois","postal_code":"60614","country":"US","phone":"7739355000x","lat":41.918677,"lng":-87.648811,"price":2,"reserve_url":"http://www.opentable.com/single.aspx?rid=1162","mobile_reserve_url":"http://mobile.opentable.com/opentable/?restId=1162","image_url":"https://www.opentable.com/img/restimages/1162.jpg"},{"id":145783,"name":"Gaudí Café","address":"1147 W Grand Ave","city":"Chicago","state":"IL","area":"Chicago / Illinois","postal_code":"60642","country":"US","phone":"3127339528x","lat":41.890772,"lng":-87.656439,"price":2,"reserve_url":"http://www.opentable.com/single.aspx?rid=145783","mobile_reserve_url":"http://mobile.opentable.com/opentable/?restId=145783","image_url":"https://www.opentable.com/img/restimages/145783.jpg"},{"id":5822,"name":"Sola","address":"3868 N Lincoln","city":"Chicago","state":"IL","area":"Chicago / Illinois","postal_code":"60613","country":"US","phone":"7733273868","lat":41.952,"lng":-87.677,"price":2,"reserve_url":"http://www.opentable.com/single.aspx?rid=5822","mobile_reserve_url":"http://mobile.opentable.com/opentable/?restId=5822","image_url":"https://www.opentable.com/img/restimages/5822.jpg"},{"id":71881,"name":"goosefoot","address":"2656 W Lawrence Ave","city":"Chicago","state":"IL","area":"Chicago / Illinois","postal_code":"60625","country":"US","phone":"7739427547x","lat":41.96858,"lng":-87.695971,"price":4,"reserve_url":"http://www.opentable.com/single.aspx?rid=71881","mobile_reserve_url":"http://mobile.opentable.com/opentable/?restId=71881","image_url":"https://www.opentable.com/img/restimages/71881.jpg"},{"id":150433,"name":"Fat Rice","address":"2957 W. Diversey Ave","city":"Chicago","state":"IL","area":"Chicago / Illinois","postal_code":"60647","country":"US","phone":"7736619170x","lat":41.931925,"lng":-87.702288,"price":2,"reserve_url":"http://www.opentable.com/single.aspx?rid=150433","mobile_reserve_url":"http://mobile.opentable.com/opentable/?restId=150433","image_url":"https://www.opentable.com/img/restimages/150433.jpg"},{"id":150607,"name":"Spencer's Jolly Posh Foods","address":"3755 N Southport","city":"Chicago","state":"IL","area":"Chicago / Illinois","postal_code":"60613","country":"US","phone":"8728023840x","lat":41.950555,"lng":-87.663831,"price":2,"reserve_url":"http://www.opentable.com/single.aspx?rid=150607","mobile_reserve_url":"http://mobile.opentable.com/opentable/?restId=150607","image_url":"https://www.opentable.com/img/restimages/150607.jpg"},{"id":2448,"name":"Ditka's - Chicago","address":"100 E. Chestnut Street","city":"Chicago","state":"IL","area":"Chicago / Illinois","postal_code":"60611","country":"US","phone":"3125878989x","lat":41.8983,"lng":-87.6256,"price":3,"reserve_url":"http://www.opentable.com/single.aspx?rid=2448","mobile_reserve_url":"http://mobile.opentable.com/opentable/?restId=2448","image_url":"https://www.opentable.com/img/restimages/2448.jpg"},{"id":6650,"name":"The Terrace Rooftop  Bar  Restaurant","address":"Conrad Chicago","city":"Chicago","state":"IL","area":"Chicago / Illinois","postal_code":"60611","country":"US","phone":"3123770979x","lat":41.891256,"lng":-87.625365,"price":3,"reserve_url":"http://www.opentable.com/single.aspx?rid=6650","mobile_reserve_url":"http://mobile.opentable.com/opentable/?restId=6650","image_url":"https://www.opentable.com/img/restimages/6650.jpg"},{"id":16765,"name":"Anteprima","address":"5316 N Clark Street","city":"Chicago","state":"IL","area":"Chicago / Illinois","postal_code":"60640","country":"US","phone":"7735069990x","lat":41.978411,"lng":-87.668256,"price":3,"reserve_url":"http://www.opentable.com/single.aspx?rid=16765","mobile_reserve_url":"http://mobile.opentable.com/opentable/?restId=16765","image_url":"https://www.opentable.com/img/restimages/16765.jpg"},{"id":1842,"name":"Gibsons Bar & Steakhouse - Chicago","address":"1028 North Rush","city":"Chicago","state":"IL","area":"Chicago / Illinois","postal_code":"60611","country":"US","phone":"3122668999","lat":41.90168,"lng":-87.628244,"price":4,"reserve_url":"http://www.opentable.com/single.aspx?rid=1842","mobile_reserve_url":"http://mobile.opentable.com/opentable/?restId=1842","image_url":"https://www.opentable.com/img/restimages/1842.jpg"},{"id":23299,"name":"HUB 51","address":"51 W. Hubbard","city":"Chicago","state":"IL","area":"Chicago / Illinois","postal_code":"60654","country":"US","phone":"3128280051x","lat":41.889798,"lng":-87.630093,"price":2,"reserve_url":"http://www.opentable.com/single.aspx?rid=23299","mobile_reserve_url":"http://mobile.opentable.com/opentable/?restId=23299","image_url":"https://www.opentable.com/img/restimages/23299.jpg"},{"id":20989,"name":"L2O","address":"2300 N. Lincoln Park West","city":"Chicago","state":"IL","area":"Chicago / Illinois","postal_code":"60614","country":"US","phone":"7738680002x","lat":41.924091,"lng":-87.636973,"price":4,"reserve_url":"http://www.opentable.com/single.aspx?rid=20989","mobile_reserve_url":"http://mobile.opentable.com/opentable/?restId=20989","image_url":"https://www.opentable.com/img/restimages/20989.jpg"},{"id":2323,"name":"Kamehachi of Tokyo - Wells Street","address":"1531 N Wells Street","city":"Chicago","state":"IL","area":"Chicago / Illinois","postal_code":"60610","country":"US","phone":"3126643663","lat":41.910041,"lng":-87.634223,"price":2,"reserve_url":"http://www.opentable.com/single.aspx?rid=2323","mobile_reserve_url":"http://mobile.opentable.com/opentable/?restId=2323","image_url":"https://www.opentable.com/img/restimages/2323.jpg"},{"id":2092,"name":"RL Restaurant","address":"115 E Chicago Ave","city":"Chicago","state":"IL","area":"Chicago / Illinois","postal_code":"60611","country":"US","phone":"3124751100","lat":41.896563,"lng":-87.625166,"price":3,"reserve_url":"http://www.opentable.com/single.aspx?rid=2092","mobile_reserve_url":"http://mobile.opentable.com/opentable/?restId=2092","image_url":"https://www.opentable.com/img/restimages/2092.jpg"},{"id":22804,"name":"AraOn","address":"160 W. Adams Street","city":"Chicago","state":"IL","area":"Chicago / Illinois","postal_code":"60603","country":"US","phone":"3127817300","lat":41.879736,"lng":-87.632668,"price":2,"reserve_url":"http://www.opentable.com/single.aspx?rid=22804","mobile_reserve_url":"http://mobile.opentable.com/opentable/?restId=22804","image_url":"https://www.opentable.com/img/restimages/22804.jpg"},{"id":117958,"name":"Bottlefork","address":"441 North Clark Street","city":"Chicago","state":"IL","area":"Chicago / Illinois","postal_code":"60654","country":"US","phone":"3129551900x","lat":41.890438,"lng":-87.63079,"price":2,"reserve_url":"http://www.opentable.com/single.aspx?rid=117958","mobile_reserve_url":"http://mobile.opentable.com/opentable/?restId=117958","image_url":"https://www.opentable.com/img/restimages/117958.jpg"},{"id":107047,"name":"Macku Signature","address":"2925 N Halsted St","city":"Chicago","state":"IL","area":"Chicago / Illinois","postal_code":"60657","country":"US","phone":"7733608816x","lat":41.935593,"lng":-87.649099,"price":3,"reserve_url":"http://www.opentable.com/single.aspx?rid=107047","mobile_reserve_url":"http://mobile.opentable.com/opentable/?restId=107047","image_url":"https://www.opentable.com/img/restimages/107047.jpg"},{"id":91492,"name":"Chuck's: A Kerry Simon Kitchen","address":"224 North Michigan Ave","city":"Chicago","state":"IL","area":"Chicago / Illinois","postal_code":"60601","country":"US","phone":"3123346700x","lat":41.886436,"lng":-87.624614,"price":2,"reserve_url":"http://www.opentable.com/single.aspx?rid=91492","mobile_reserve_url":"http://mobile.opentable.com/opentable/?restId=91492","image_url":"https://www.opentable.com/img/restimages/91492.jpg"},{"id":1004,"name":"Coco Pazzo","address":"300 West Hubbard","city":"Chicago","state":"IL","area":"Chicago / Illinois","postal_code":"60610","country":"US","phone":"3128360900x","lat":41.890037,"lng":-87.635682,"price":3,"reserve_url":"http://www.opentable.com/single.aspx?rid=1004","mobile_reserve_url":"http://mobile.opentable.com/opentable/?restId=1004","image_url":"https://www.opentable.com/img/restimages/1004.jpg"},{"id":21979,"name":"David Burke's Primehouse in the James Hotel","address":"616 N Rush Street","city":"Chicago","state":"IL","area":"Chicago / Illinois","postal_code":"60611","country":"US","phone":"3126606000x","lat":41.892946,"lng":-87.62539,"price":3,"reserve_url":"http://www.opentable.com/single.aspx?rid=21979","mobile_reserve_url":"http://mobile.opentable.com/opentable/?restId=21979","image_url":"https://www.opentable.com/img/restimages/21979.jpg"}]},"Seattle":{"total_entries":255,"per_page":25,"current_page":1,"restaurants":[{"id":148669,"name":"Portage Bay Cafe - Ballard","address":"2821 NW Market Street","city":"Seattle","state":"WA","area":"Seattle / Eastern Washington","postal_code":"98107","country":"US","phone":"2067831547x","lat":47.66837,"lng":-122.394373,"price":2,"reserve_url":"http://www.opentable.com/single.aspx?rid=148669","mobile_reserve_url":"http://mobile.opentable.com/opentable/?restId=148669","image_url":"https://www.opentable.com/img/restimages/148669.jpg"},{"id":148222,"name":"Quality Athletics","address":"115 S King St","city":"Seattle","state":"WA","area":"Seattle / Eastern Washington","postal_code":"98104","country":"US","phone":"2064203018","lat":47.598264,"lng":-122.333882,"price":2,"reserve_url":"http://www.opentable.com/single.aspx?rid=148222","mobile_reserve_url":"http://mobile.opentable.com/opentable/?restId=148222","image_url":"https://www.opentable.com/img/restimages/148222.jpg"},{"id":145576,"name":"Jai Thai","address":"3423 Fremont Ave N","city":"Seattle","state":"WA","area":"Seattle / Eastern Washington","postal_code":"98103","country":"US","phone":"2066327060","lat":47.650334,"lng":-122.350188,"price":2,"reserve_url":"http://www.opentable.com/single.aspx?rid=145576","mobile_reserve_url":"http://mobile.opentable.com/opentable/?restId=145576","image_url":"https://www.opentable.com/img/restimages/145576.jpg"},{"id":6039,"name":"Il Fornaio - Seattle","address":"600 Pine Street","city":"Seattle","state":"WA","area":"Seattle / Eastern Washington","postal_code":"98101","country":"US","phone":"2062640994x","lat":47.612,"lng":-122.335,"price":2,"reserve_url":"http://www.opentable.com/single.aspx?rid=6039","mobile_reserve_url":"http://mobile.opentable.com/opentable/?restId=6039","image_url":"https://www.opentable.com/img/restimages/6039.jpg"},{"id":39814,"name":"AQUA by El Gaucho","address":"2801 Alaskan Way","city":"Seattle","state":"WA","area":"Seattle / Eastern Washington","postal_code":"98121","country":"US","phone":"2069569171x","lat":47.614422,"lng":-122.354045,"price":4,"reserve_url":"http://www.opentable.com/single.aspx?rid=39814","mobile_reserve_url":"http://mobile.opentable.com/opentable/?restId=39814","image_url":"https://www.opentable.com/img/restimages/39814.jpg"},{"id":100888,"name":"Bar Cotto","address":"1546 15th Ave","city":"Seattle","state":"WA","area":"Seattle / Eastern Washington","postal_code":"98107","country":"US","phone":"2068388081x","lat":47.614692,"lng":-122.312781,"price":2,"reserve_url":"http://www.opentable.com/single.aspx?rid=100888","mobile_reserve_url":"http://mobile.opentable.com/opentable/?restId=100888","image_url":"https://www.opentable.com/img/restimages/100888.jpg"},{"id":100540,"name":"The Backdoor","address":"462 N. 36th Street","city":"Seattle","state":"WA","area":"Seattle / Eastern Washington","postal_code":"98103","country":"US","phone":"2066327322","lat":47.651968,"lng":-122.352765,"price":2,"reserve_url":"http://www.opentable.com/single.aspx?rid=100540","mobile_reserve_url":"http://mobile.opentable.com/opentable/?restId=100540","image_url":"https://www.opentable.com/img/restimages/100540.jpg"},{"id":112,"name":"Sazerac","address":"1101 4th Ave.","city":"Seattle","state":"WA","area":"Seattle / Eastern Washington","postal_code":"98101","country":"US","phone":"2066247755x","lat":47.606842,"lng":-122.33378,"price":2,"reserve_url":"http://www.opentable.com/single.aspx?rid=112","mobile_reserve_url":"http://mobile.opentable.com/opentable/?restId=112","image_url":"https://www.opentable.com/img/restimages/112.jpg"},{"id":103747,"name":"Henry's Tavern - Seattle","address":"1518 First Ave South","city":"Seattle","state":"WA","area":"Seattle / Eastern Washington","postal_code":"98134","country":"US","phone":"2066240501x","lat":47.589603,"lng":-122.333761,"price":2,"reserve_url":"http://www.opentable.com/single.aspx?rid=103747","mobile_reserve_url":"http://mobile.opentable.com/opentable/?restId=103747","image_url":"https://www.opentable.com/img/restimages/103747.jpg"},{"id":90052,"name":"Manhattan Seattle","address":"1419 12th Avenue","city":"Seattle","state":"WA","area":"Seattle / Eastern Washington","postal_code":"98122","country":"US","phone":"2063256574x","lat":47.613554,"lng":-122.316825,"price":2,"reserve_url":"http://www.opentable.com/single.aspx?rid=90052","mobile_reserve_url":"http://mobile.opentable.com/opentable/?restId=90052","image_url":"https://www.opentable.com/img/restimages/90052.jpg"},{"id":67405,"name":"Sushi Kappo Tamura","address":"2968 Eastlake Avenue East","city":"Seattle","state":"WA","area":"Seattle / Eastern Washington","postal_code":"98102","country":"US","phone":"2065470937","lat":47.648474,"lng":-122.323649,"price":3,"reserve_url":"http://www.opentable.com/single.aspx?rid=67405","mobile_reserve_url":"http://mobile.opentable.com/opentable/?restId=67405","image_url":"https://www.opentable.com/img/restimages/67405.jpg"},{"id":61246,"name":"Poquitos","address":"1000 E Pike Street","city":"Seattle","state":"WA","area":"Seattle / Eastern Washington","postal_code":"98122","country":"US","phone":"2064534216x","lat":47.6142,"lng":-122.319191,"price":2,"reserve_url":"http://www.opentable.com/single.aspx?rid=61246","mobile_reserve_url":"http://mobile.opentable.com/opentable/?restId=61246","image_url":"https://www.opentable.com/img/restimages/61246.jpg"},{"id":49144,"name":"Chloé","address":"3515 NE 45th Street","city":"Seattle","state":"WA","area":"Seattle / Eastern Washington","postal_code":"98105","country":"US","phone":"2062570286","lat":47.660969,"lng":-122.289637,"price":2,"reserve_url":"http://www.opentable.com/single.aspx?rid=49144","mobile_reserve_url":"http://mobile.opentable.com/opentable/?restId=49144","image_url":"https://www.opentable.com/img/restimages/49144.jpg"},{"id":148051,"name":"Joule","address":"3506 Stone Way N","city":"Seattle","state":"WA","area":"Seattle / Eastern Washington","postal_code":"98103","country":"US","phone":"2066325685x","lat":47.649592,"lng":-122.342244,"price":2,"reserve_url":"http://www.opentable.com/single.aspx?rid=148051","mobile_reserve_url":"http://mobile.opentable.com/opentable/?restId=148051","image_url":"https://www.opentable.com/img/restimages/148051.jpg"},{"id":3922,"name":"Tango","address":"1100 Pike Street","city":"Seattle","state":"WA","area":"Seattle / Eastern Washington","postal_code":"98101","country":"US","phone":"2065830382x","lat":47.6134,"lng":-122.3289,"price":2,"reserve_url":"http://www.opentable.com/single.aspx?rid=3922","mobile_reserve_url":"http://mobile.opentable.com/opentable/?restId=3922","image_url":"https://www.opentable.com/img/restimages/3922.jpg"},{"id":75058,"name":"Ray's Cafe","address":"6049 Seaview Ave NW","city":"Seattle","state":"WA","area":"Seattle / Eastern Washington","postal_code":"98107","country":"US","phone":"2067820094x","lat":47.673353,"lng":-122.406359,"price":2,"reserve_url":"http://www.opentable.com/single.aspx?rid=75058","mobile_reserve_url":"http://mobile.opentable.com/opentable/?restId=75058","image_url":"https://www.opentable.com/img/restimages/75058.jpg"},{"id":11698,"name":"Andaluca","address":"407 Olive Way","city":"Seattle","state":"WA","area":"Seattle / Eastern Washington","postal_code":"98101","country":"US","phone":"2063826999x","lat":47.612269,"lng":-122.338389,"price":2,"reserve_url":"http://www.opentable.com/single.aspx?rid=11698","mobile_reserve_url":"http://mobile.opentable.com/opentable/?restId=11698","image_url":"https://www.opentable.com/img/restimages/11698.jpg"},{"id":61417,"name":"Cuoco","address":"310 Terry Avenue North","city":"Seattle","state":"WA","area":"Seattle / Eastern Washington","postal_code":"98109","country":"US","phone":"2069710710","lat":47.620995,"lng":-122.337113,"price":2,"reserve_url":"http://www.opentable.com/single.aspx?rid=61417","mobile_reserve_url":"http://mobile.opentable.com/opentable/?restId=61417","image_url":"https://www.opentable.com/img/restimages/61417.jpg"},{"id":3274,"name":"Lola Seattle","address":"2000 Fourth Avenue","city":"Seattle","state":"WA","area":"Seattle / Eastern Washington","postal_code":"98121","country":"US","phone":"2064411430","lat":47.613,"lng":-122.3399,"price":3,"reserve_url":"http://www.opentable.com/single.aspx?rid=3274","mobile_reserve_url":"http://mobile.opentable.com/opentable/?restId=3274","image_url":"https://www.opentable.com/img/restimages/3274.jpg"},{"id":150589,"name":"Hommage","address":"198 Nickerson Street","city":"Seattle","state":"WA","area":"Seattle / Eastern Washington","postal_code":"98109","country":"US","phone":"2062832665","lat":47.648011,"lng":-122.352771,"price":2,"reserve_url":"http://www.opentable.com/single.aspx?rid=150589","mobile_reserve_url":"http://mobile.opentable.com/opentable/?restId=150589","image_url":"https://www.opentable.com/img/restimages/150589.jpg"},{"id":6966,"name":"BOKA Restaurant + Bar","address":"1010 First Avenue","city":"Seattle","state":"WA","area":"Seattle / Eastern Washington","postal_code":"98104","country":"US","phone":"2063579000x","lat":47.604789,"lng":-122.336277,"price":2,"reserve_url":"http://www.opentable.com/single.aspx?rid=6966","mobile_reserve_url":"http://mobile.opentable.com/opentable/?restId=6966","image_url":"https://www.opentable.com/img/restimages/6966.jpg"},{"id":124507,"name":"The Corson Building","address":"5609 Corson Ave S","city":"Seattle","state":"WA","area":"Seattle / Eastern Washington","postal_code":"98108","country":"US","phone":"2067623330x","lat":47.551969,"lng":-122.320374,"price":4,"reserve_url":"http://www.opentable.com/single.aspx?rid=124507","mobile_reserve_url":"http://mobile.opentable.com/opentable/?restId=124507","image_url":"https://www.opentable.com/img/restimages/124507.jpg"},{"id":1345,"name":"Assaggio","address":"2010 4th Ave.","city":"Seattle","state":"WA","area":"Seattle / Eastern Washington","postal_code":"98121","country":"US","phone":"2064411399","lat":47.613256,"lng":-122.34003,"price":3,"reserve_url":"http://www.opentable.com/single.aspx?rid=1345","mobile_reserve_url":"http://mobile.opentable.com/opentable/?restId=1345","image_url":"https://www.opentable.com/img/restimages/1345.jpg"},{"id":102091,"name":"Ballard Loft","address":"5105 Ballard Ave. NW","city":"Seattle","state":"WA","area":"Seattle / Eastern Washington","postal_code":"98107","country":"US","phone":"2064202737","lat":47.664526,"lng":-122.38111,"price":2,"reserve_url":"http://www.opentable.com/single.aspx?rid=102091","mobile_reserve_url":"http://mobile.opentable.com/opentable/?restId=102091","image_url":"https://www.opentable.com/img/restimages/102091.jpg"},{"id":25807,"name":"Barrio - Capitol Hill","address":"1420 12th Avenue","city":"Seattle","state":"WA","area":"Seattle / Eastern Washington","postal_code":"98122","country":"US","phone":"206-588-8105","lat":47.613176,"lng":-122.316819,"price":2,"reserve_url":"http://www.opentable.com/single.aspx?rid=25807","mobile_reserve_url":"http://mobile.opentable.com/opentable/?restId=25807","image_url":"https://www.opentable.com/img/restimages/25807.jpg"}]}}